City_ID,City,Lat,Lng,Max Temp,Humidity,Cloudiness,Wind Speed,Country
0,rikitea,-23.1203,-134.9692,297.26,81,100,6.06,PF
1,hermanus,-34.4187,19.2345,283.6,71,30,2.07,ZA
2,nishihara,26.1842,127.7558,294.75,64,75,10.29,JP
3,grand gaube,-20.0064,57.6608,300.03,70,53,4.92,MU
4,mar del plata,-38.0023,-57.5575,294.16,73,0,5.66,AR
5,san patricio,28.017,-97.5169,295.2,88,64,5.25,US
6,nuuk,64.1835,-51.7216,275.48,88,100,12.93,GL
7,omsukchan,62.5333,155.8,246.87,98,100,1.67,RU
8,hobart,-42.8794,147.3294,288.85,58,75,7.72,AU
9,atuona,-9.8,-139.0333,298.62,74,48,7.15,PF
10,tasiilaq,65.6145,-37.6368,269.24,58,8,1.66,GL
11,hilo,19.7297,-155.09,297.19,91,75,3.09,US
12,busselton,-33.65,115.3333,296.34,37,0,4.15,AU
13,port elizabeth,-33.918,25.5701,289.44,86,100,4.02,ZA
14,kaitangata,-46.2817,169.8464,286.24,54,22,6.1,NZ
15,orlik,52.5178,99.825,253.14,67,100,0.79,RU
16,longyearbyen,78.2186,15.6401,258.06,56,40,5.14,SJ
17,sao joao de pirabas,-0.7747,-47.1772,298.98,79,100,2.93,BR
18,goderich,43.7501,-81.7165,277.54,66,100,4.84,CA
19,charters towers,-20.1,146.2667,308.44,19,0,2.13,AU
20,guerrero negro,27.9769,-114.0611,290.05,88,31,6.99,MX
21,butaritari,3.0707,172.7902,300.42,79,83,6.37,KI
22,bathsheba,13.2167,-59.5167,295.96,95,20,3.09,BB
23,thompson,55.7435,-97.8558,244.28,95,96,2.93,CA
24,lompoc,34.6391,-120.4579,284.14,94,20,0.0,US
25,ushuaia,-54.8,-68.3,276.96,70,0,3.6,AR
26,solnechnyy,50.7214,136.6319,258.7,72,100,1.69,RU
27,saint-augustin,51.226,-58.6502,267.77,87,14,0.99,CA
28,ponta do sol,32.6667,-17.1,292.43,74,100,1.77,PT
29,port alfred,-33.5906,26.891,288.25,93,91,0.89,ZA
30,bluff,-46.6,168.3333,283.6,59,12,6.63,NZ
31,kurtalan,37.9272,41.7028,280.66,67,40,0.87,TR
32,sungaipenuh,-2.0833,101.3833,298.56,63,96,1.1,ID
33,barrow,71.2906,-156.7887,269.16,80,100,5.14,US
34,lebu,-37.6167,-73.65,286.85,91,10,1.17,CL
35,lorengau,-2.0226,147.2712,299.99,83,100,5.42,PG
36,bilma,18.6853,12.9164,293.32,23,58,2.92,NE
37,ivanovice na hane,49.3054,17.0934,275.98,99,100,0.81,CZ
38,krasnyy yar,46.5331,48.3456,261.11,60,4,3.0,RU
39,bauchi,10.5,10.0,288.9,26,30,2.13,NG
40,tuktoyaktuk,69.4541,-133.0374,246.61,83,10,9.25,CA
41,sabang,5.8933,95.3214,299.81,77,99,3.59,ID
42,punta arenas,-53.15,-70.9167,277.1,80,96,4.73,CL
43,wilmington,34.2257,-77.9447,286.1,77,100,0.0,US
44,waldkraiburg,48.2085,12.3989,275.71,99,100,1.65,DE
45,san vicente,-26.6167,-54.1333,292.46,93,25,1.1,AR
46,cabo san lucas,22.8909,-109.9124,298.99,73,67,4.68,MX
47,mataura,-46.1927,168.8643,283.42,40,13,3.2,NZ
48,ilulissat,69.2167,-51.1,276.16,44,20,10.29,GL
49,vardo,70.3705,31.1107,272.14,86,40,8.75,NO
50,clyde river,70.4692,-68.5914,268.28,100,100,1.03,CA
51,chuy,-33.6971,-53.4616,290.1,94,0,2.46,UY
52,wadi musa,30.3222,35.4793,281.75,94,72,1.13,JO
53,cherskiy,68.75,161.3,251.11,91,100,2.17,RU
54,beringovskiy,63.05,179.3167,270.64,77,53,9.57,RU
55,omboue,-1.5746,9.2618,298.15,87,91,2.26,GA
56,leh,34.1667,77.5833,266.95,42,100,1.43,IN
57,portland,45.5234,-122.6762,277.23,87,56,1.01,US
58,cayenne,4.9333,-52.3333,297.17,94,100,1.03,GF
59,norman wells,65.282,-126.8329,243.8,88,40,4.79,CA
60,mimoso do sul,-21.0642,-41.3664,294.21,92,99,1.58,BR
61,ust-barguzin,53.45,108.9833,265.71,71,96,5.89,RU
62,georgiyevka,43.0369,74.7114,265.17,93,75,1.0,KZ
63,puerto lopez,4.0845,-72.956,295.81,93,98,1.92,CO
64,jamestown,42.097,-79.2353,279.92,42,100,5.14,US
65,bijie,27.3125,105.2942,276.03,84,100,1.55,CN
66,lasa,46.6166,10.7002,271.13,66,13,1.99,IT
67,mantua,45.1667,10.7833,279.23,92,0,1.34,IT
68,pevek,69.7008,170.3133,254.28,68,100,2.45,RU
69,sur,22.5667,59.5289,297.08,55,0,0.97,OM
70,andenes,69.3143,16.1194,274.14,86,75,8.75,NO
71,bredasdorp,-34.5322,20.0403,286.54,75,73,1.14,ZA
72,provideniya,64.3833,-173.3,272.24,80,100,12.07,RU
73,faanui,-16.4833,-151.75,299.98,72,21,7.39,PF
74,biak,-0.9131,122.8766,301.73,61,98,2.09,ID
75,kapaa,22.0752,-159.319,297.33,91,100,4.63,US
76,chinchani,19.8667,72.7,299.15,68,16,3.86,IN
77,east london,-33.0153,27.9116,288.94,76,73,3.52,ZA
78,aktash,50.3,87.7333,252.6,81,9,1.81,RU
79,chumikan,54.7183,135.315,256.99,75,31,9.6,RU
80,kozhevnikovo,56.2589,83.9714,254.12,93,100,2.31,RU
81,makakilo city,21.3469,-158.0858,298.33,72,75,3.09,US
82,stromness,58.965,-3.296,279.13,83,100,4.47,GB
83,trinidad,-14.8333,-64.9,296.12,90,100,0.9,BO
84,rawson,-43.3002,-65.1023,295.31,30,0,9.77,AR
85,haimen,23.1935,116.6142,290.09,65,96,5.29,CN
86,vanimo,-2.6741,141.3028,300.06,83,100,2.1,PG
87,tongzhou,39.9053,116.5994,278.21,19,0,3.0,CN
88,marsa matruh,31.3525,27.2453,289.18,74,0,3.48,EG
89,guider,9.9342,13.9486,295.8,20,22,2.53,CM
90,mahebourg,-20.4081,57.7,299.96,73,40,6.69,MU
91,fortuna,40.5982,-124.1573,279.46,95,100,0.0,US
92,arraial do cabo,-22.9661,-42.0278,296.28,90,100,10.05,BR
93,nabire,-3.3667,135.4833,304.44,51,37,2.33,ID
94,cam ranh,11.9214,109.1591,299.13,89,40,5.14,VN
95,nome,64.5011,-165.4064,272.19,93,100,13.38,US
96,bambari,5.768,20.6757,297.29,64,97,1.1,CF
97,avarua,-21.2078,-159.775,297.18,88,20,2.57,CK
98,albany,42.6001,-73.9662,276.65,61,98,0.45,US
99,karnobat,42.65,26.9833,280.06,91,100,0.59,BG
100,puerto ayora,-0.7393,-90.3518,294.01,93,24,2.24,EC
101,wajima,37.4,136.9,281.35,82,93,7.35,JP
102,aasiaat,68.7098,-52.8699,269.94,74,36,4.93,GL
103,ariquemes,-9.9133,-63.0408,295.13,99,100,0.69,BR
104,castro,-24.7911,-50.0119,291.01,95,84,0.91,BR
105,buala,-8.145,159.5921,302.29,71,92,2.07,SB
106,cape town,-33.9258,18.4232,289.77,75,0,3.13,ZA
107,barra patuca,15.8,-84.2833,298.3,70,12,3.44,HN
108,marienburg,54.0359,19.0266,276.95,89,100,2.13,PL
109,benguela,-12.5763,13.4055,298.23,81,100,1.55,AO
110,vaini,-21.2,-175.2,299.12,81,79,8.87,TO
111,gashua,12.871,11.0482,292.74,23,39,4.96,NG
112,saint-philippe,-21.3585,55.7679,298.92,81,98,4.83,RE
113,bandarbeyla,9.4942,50.8122,297.98,70,44,8.01,SO
114,nikolskoye,59.7035,30.7861,266.09,88,100,3.97,RU
115,constitucion,-35.3333,-72.4167,286.76,71,0,4.04,CL
116,seoul,37.5683,126.9778,276.84,82,84,1.68,KR
117,sao felix do xingu,-6.6447,-51.995,294.34,99,100,0.47,BR
118,pangody,65.85,74.4859,255.77,98,34,3.62,RU
119,mayo,38.8876,-76.5119,278.22,93,20,1.54,US
120,sao joao da boa vista,-21.9692,-46.7981,292.06,94,100,2.71,BR
121,kahului,20.8947,-156.47,298.62,82,93,0.89,US
122,pitimbu,-7.4706,-34.8086,298.48,79,6,5.07,BR
123,khasan,42.4308,130.6434,272.01,33,1,5.63,RU
124,benjamin constant,-4.3831,-70.0311,297.22,94,92,0.73,BR
125,mareeba,-17.0,145.4333,308.39,31,0,3.45,AU
126,upernavik,72.7868,-56.1549,270.57,63,80,3.04,GL
127,olinda,-8.0089,-34.8553,300.0,69,75,3.09,BR
128,lincoln,40.8,-96.667,273.31,66,100,6.69,US
129,road town,18.4167,-64.6167,299.2,63,31,8.35,VG
130,belyy yar,53.6039,91.3903,247.09,84,14,0.0,RU
131,mildura,-34.2,142.15,297.63,30,94,2.82,AU
132,manggar,-2.8833,108.2667,302.58,67,100,0.75,ID
133,morondava,-20.2833,44.2833,298.38,77,84,3.04,MG
134,colac,-38.3333,143.5833,292.13,50,42,1.97,AU
135,west bay,19.3667,-81.4167,299.26,73,0,0.89,KY
136,yellowknife,62.456,-114.3525,237.9,66,17,3.58,CA
137,tiksi,71.6872,128.8694,246.54,94,100,4.43,RU
138,ugoofaaru,5.6667,73.0,300.08,77,100,4.22,MV
139,half moon bay,37.4636,-122.4286,284.9,88,75,0.0,US
140,agua branca,-5.8922,-42.6361,297.99,55,73,0.21,BR
141,ahar,38.4774,47.0699,268.31,95,62,0.7,IR
142,sao joao da barra,-21.6403,-41.0511,296.41,85,99,9.36,BR
143,cienfuegos,22.1461,-80.4356,292.86,84,0,3.12,CU
144,naze,28.3667,129.4833,289.01,62,85,7.68,JP
145,chokurdakh,70.6333,147.9167,232.4,100,43,1.04,RU
146,qaanaaq,77.484,-69.3632,271.27,74,100,5.8,GL
147,ribeira grande,38.5167,-28.7,288.02,84,100,0.89,PT
148,cidreira,-30.1811,-50.2056,294.73,92,100,2.74,BR
149,linjiang,41.8069,126.9078,268.09,51,7,4.43,CN
150,carnarvon,-24.8667,113.6333,296.82,62,20,7.67,AU
151,litovko,49.2361,135.1742,259.87,84,78,5.13,RU
152,georgetown,5.4112,100.3354,304.11,79,20,1.54,MY
153,segou,13.4317,-6.2157,299.68,24,95,3.5,ML
154,tuatapere,-46.1333,167.6833,286.04,54,34,3.53,NZ
155,anori,-3.7728,-61.6442,295.65,98,59,0.71,BR
156,fairbanks,64.8378,-147.7164,269.16,90,100,0.0,US
157,bethel,41.3712,-73.414,277.56,82,20,0.0,US
158,gat,31.61,34.7642,288.93,100,9,2.48,IL
159,new norfolk,-42.7826,147.0587,289.22,40,51,1.34,AU
160,mutis,6.2262,-77.4044,297.11,88,40,2.34,CO
161,gorontalo,0.5412,123.0595,303.13,67,88,2.06,ID
162,maragogi,-9.0122,-35.2225,297.06,87,11,3.1,BR
163,tambacounda,13.7539,-13.7586,297.43,45,47,1.64,SN
164,saldanha,-33.0117,17.9442,288.59,84,12,4.24,ZA
165,saskylakh,71.9167,114.0833,251.43,96,100,8.0,RU
166,mikhaylovsk,45.1283,42.0256,266.27,93,100,8.0,RU
167,tateyama,34.9833,139.8667,284.87,87,75,3.6,JP
168,hasaki,35.7333,140.8333,281.6,86,100,8.32,JP
169,smirnykh,49.75,142.8333,264.82,71,64,3.57,RU
170,urumqi,43.801,87.6005,263.68,73,0,1.0,CN
171,fort nelson,58.8053,-122.7002,245.34,83,43,0.45,CA
172,talnakh,69.4865,88.3972,269.38,96,100,3.82,RU
173,severo-kurilsk,50.6789,156.125,269.54,80,86,6.27,RU
174,comodoro rivadavia,-45.8667,-67.5,289.07,36,0,11.83,AR
175,zaraza,9.3503,-65.3245,294.72,87,69,2.93,VE
176,ogulin,45.2661,15.2286,276.82,91,96,1.96,HR
177,taloqan,36.7361,69.5345,274.49,83,100,0.19,AF
178,libreville,0.3925,9.4537,299.2,84,99,1.44,GA
179,sumbe,-11.2061,13.8437,297.55,89,100,0.83,AO
180,marawi,7.9986,124.2928,301.03,58,96,2.14,PH
181,henties bay,-22.116,14.2845,286.68,91,21,3.9,NA
182,gigmoto,13.7796,124.39,301.71,68,97,3.05,PH
183,abu samrah,35.3029,37.1841,283.54,78,12,1.53,SY
184,manhumirim,-20.3578,-41.9581,291.58,98,100,1.82,BR
185,verkhnetulomskiy,68.6073,31.7962,270.22,97,100,1.99,RU
186,camacha,33.0833,-16.3333,289.83,77,20,2.06,PT
187,katsuura,35.1333,140.3,283.16,89,100,7.26,JP
188,sioux lookout,50.1001,-91.917,248.04,97,21,1.08,CA
189,valdivia,-39.8142,-73.2459,284.2,99,99,0.75,CL
190,vasilsursk,56.1275,46.0072,259.32,90,100,2.12,RU
191,hithadhoo,-0.6,73.0833,300.63,73,100,4.44,MV
192,emerald,-23.5333,148.1667,307.23,31,0,1.89,AU
193,satao,40.7418,-7.7329,280.32,95,100,1.78,PT
194,moroni,-11.7022,43.2551,299.68,75,11,1.73,KM
195,sitka,57.0531,-135.33,276.09,87,100,2.06,US
196,marzuq,14.4,46.4667,289.23,55,32,1.63,YE
197,kruisfontein,-34.0033,24.7314,286.42,73,100,2.3,ZA
198,gurupa,-1.405,-51.64,294.93,95,93,1.39,BR
199,iqaluit,63.7506,-68.5145,251.11,98,58,1.22,CA
200,azuaga,38.2667,-5.6833,282.46,93,80,0.78,ES
201,lang son,21.8333,106.7333,289.27,57,29,2.31,VN
202,novyy urengoy,66.0833,76.6333,258.44,92,45,4.84,RU
203,port hardy,50.6996,-127.4199,276.65,84,100,2.01,CA
204,okha,53.5739,142.9478,259.87,87,100,5.32,RU
205,whitefish,48.4111,-114.3376,266.01,90,100,0.0,US
206,susanville,40.4163,-120.653,274.71,95,100,0.45,US
207,lata,40.1629,-8.3327,284.3,92,100,0.82,PT
208,iraucuba,-3.7461,-39.7833,297.56,78,20,3.08,BR
209,seoni,22.0833,79.5333,294.21,44,0,4.05,IN
210,haines junction,60.7522,-137.5108,258.71,98,77,0.94,CA
211,ketchikan,55.3422,-131.6461,276.14,93,100,0.0,US
212,chiang khong,20.2613,100.4046,300.99,59,34,0.55,TH
213,antofagasta,-23.65,-70.4,289.75,81,34,0.43,CL
214,minab,27.1467,57.0801,296.24,49,93,2.0,IR
215,poso,-1.3959,120.7524,302.61,71,99,1.29,ID
216,bambous virieux,-20.3428,57.7575,299.38,73,40,6.69,MU
217,nouadhibou,20.931,-17.0347,291.22,86,41,5.86,MR
218,dabakala,8.3667,-4.4333,297.99,67,77,1.7,CI
219,kango,0.1943,10.0951,296.97,94,98,0.67,GA
220,dikson,73.5069,80.5464,267.13,97,100,5.33,RU
221,kiama,-34.6833,150.8667,293.71,65,47,4.5,AU
222,sandakan,5.8402,118.1179,301.18,77,99,1.23,MY
223,sambava,-14.2667,50.1667,297.6,80,33,4.22,MG
224,tarakan,3.3,117.6333,300.84,73,49,1.24,ID
225,korla,41.7597,86.1469,270.68,35,77,1.22,CN
226,almaznyy,48.0448,40.045,264.56,58,0,4.45,RU
227,jackson,42.4165,-122.8345,279.29,82,91,0.28,US
228,srirampur,22.9489,88.0189,296.62,38,1,3.67,IN
229,zyryanka,65.75,150.85,227.15,97,30,1.67,RU
230,vila velha,-20.3297,-40.2925,296.12,93,20,2.57,BR
231,meulaboh,4.1363,96.1285,299.16,84,98,1.97,ID
232,mongoumba,3.6415,18.5936,294.93,85,72,1.5,CF
233,devonport,-41.1667,146.35,291.53,46,2,5.1,AU
234,shache,38.4167,77.2406,270.77,30,1,0.49,CN
235,kavieng,-2.5744,150.7967,301.98,68,69,1.15,PG
236,kavaratti,10.5669,72.642,301.16,66,63,2.3,IN
237,hambantota,6.1241,81.1185,298.34,100,40,0.51,LK
238,sakakah,29.9697,40.2064,285.49,66,17,2.85,SA
239,bonavista,48.6499,-53.1147,275.57,88,98,4.66,CA
240,leningradskiy,69.3833,178.4167,251.27,88,90,2.47,RU
241,agadez,19.75,10.25,293.08,21,65,4.32,NE
242,ostrovnoy,68.0531,39.5131,270.07,90,100,9.72,RU
243,jinxiang,27.4327,120.6062,286.21,64,46,5.71,CN
244,saint-francois,46.4154,3.9054,269.84,100,100,0.0,FR
245,russell,32.3502,-85.1999,290.91,100,20,0.0,US
246,kuala terengganu,5.3302,103.1408,302.58,87,95,1.62,MY
247,yar-sale,66.8333,70.8333,256.65,97,35,3.59,RU
248,paliambela,40.5114,22.5033,284.19,100,100,0.81,GR
249,ancud,-41.8697,-73.8203,285.07,95,62,1.48,CL
250,touros,-5.1989,-35.4608,298.56,75,0,5.35,BR
251,luderitz,-26.6481,15.1594,287.82,78,54,8.41,NA
252,high level,58.5169,-117.136,244.87,82,8,2.28,CA
253,karratha,-20.7377,116.8463,309.37,28,6,7.33,AU
254,san cristobal,7.7669,-72.225,289.82,98,39,1.55,VE
255,vestmannaeyjar,63.4427,-20.2734,276.7,71,27,2.49,IS
256,bubaque,11.2833,-15.8333,299.31,73,8,3.37,GW
257,quatre cocos,-20.2078,57.7625,299.87,74,50,6.89,MU
258,dukat,62.55,155.55,245.09,97,100,2.06,RU
259,preeceville,51.95,-102.6677,248.81,97,100,2.54,CA
260,kaniama,-7.5667,24.1833,290.3,97,100,0.44,CD
261,nisia floresta,-6.0911,-35.2086,298.6,81,3,3.44,BR
262,suez,29.9737,32.5263,289.23,69,54,2.71,EG
263,saint anthony,45.0205,-93.218,267.4,65,0,3.6,US
264,faya,18.3851,42.4509,281.44,53,0,1.12,SA
265,port macquarie,-31.4333,152.9167,298.09,64,27,7.65,AU
266,turkistan,43.0,68.0,265.52,60,0,1.29,KZ
267,cabadiangan,9.7531,122.4739,303.29,68,67,4.41,PH
268,krasnokamensk,50.0979,118.0369,262.84,84,100,8.6,RU
269,wittstock,53.1612,12.4829,273.7,98,100,2.46,DE
270,victoria point,-27.5833,153.3,311.52,57,0,1.79,AU
271,tilichiki,60.4667,166.1,258.63,93,80,3.82,RU
272,broome,42.2506,-75.833,276.31,64,0,5.14,US
273,mount isa,-20.7333,139.5,311.02,14,0,2.06,AU
274,airai,-8.9266,125.4092,299.89,29,38,1.18,TL
275,alexandria,31.2156,29.9553,292.01,62,100,3.84,EG
276,victoria,22.2855,114.1577,290.55,73,96,4.47,HK
277,khatanga,71.9667,102.5,250.88,90,100,6.25,RU
278,sao filipe,14.8961,-24.4956,295.51,67,24,1.63,CV
279,galesong,-5.3166,119.3661,304.16,65,78,2.16,ID
280,shenjiamen,29.9576,122.298,285.44,57,36,4.88,CN
281,yatou,37.15,122.3833,278.79,36,0,6.81,CN
282,voloshka,61.3314,40.0858,263.88,93,100,3.24,RU
283,natal,-5.795,-35.2094,298.51,83,40,3.6,BR
284,pochutla,15.7432,-96.4661,296.38,68,0,1.49,MX
285,lamu,-2.2717,40.902,296.27,73,98,1.67,KE
286,clarence town,-32.5833,151.7833,297.12,46,60,4.22,AU
287,alice springs,-23.7,133.8833,312.9,7,2,6.69,AU
288,brumunddal,60.881,10.9395,265.21,92,99,1.47,NO
289,verkhoyansk,67.5447,133.385,244.96,100,100,0.83,RU
290,sampit,-2.5333,112.95,304.4,64,94,0.43,ID
291,brownsville,25.9018,-97.4975,296.53,93,40,5.14,US
292,bilibino,68.0546,166.4372,255.98,72,100,2.9,RU
293,bengkulu,-3.8004,102.2655,301.08,70,100,1.94,ID
294,keflavik,64.0049,-22.5624,275.39,87,0,1.54,IS
295,lumphat,13.4878,106.9816,304.76,49,34,4.77,KH
296,kangaba,11.9333,-8.4167,297.39,33,87,1.65,ML
297,klaksvik,62.2266,-6.589,276.66,62,94,11.23,FO
298,krasnoznamensk,55.5994,37.0386,263.1,79,0,4.0,RU
299,waddan,29.1614,16.139,291.43,23,14,3.05,LY
300,vila,42.0304,-8.1588,277.64,93,86,0.97,PT
301,pangnirtung,66.1451,-65.7125,265.56,96,100,1.11,CA
302,kalmunai,7.4167,81.8167,299.94,77,100,4.76,LK
303,torbay,47.6666,-52.7314,277.46,95,100,2.24,CA
304,komsomolskiy,40.4272,71.7189,272.55,74,75,2.06,UZ
305,cicero dantas,-10.6,-38.3833,293.03,97,35,1.69,BR
306,chiang klang,19.2938,100.8617,301.57,61,26,1.26,TH
307,la rioja,42.25,-2.5,274.03,92,100,1.69,ES
308,tapachula,14.9,-92.2833,297.44,100,20,0.0,MX
309,opuwo,-18.0607,13.84,290.84,38,4,0.57,NA
310,gornyak,50.9942,81.4661,254.28,95,98,1.67,RU
311,shingu,33.7333,135.9833,286.59,41,0,2.88,JP
312,rabo de peixe,37.8,-25.5833,289.88,99,20,6.17,PT
313,prabumulih,-3.45,104.25,300.01,87,98,0.95,ID
314,quelimane,-17.8786,36.8883,299.9,76,14,3.51,MZ
315,saldana,3.9292,-75.0152,294.86,88,34,0.61,CO
316,poronaysk,49.2167,143.1167,267.53,64,34,6.28,RU
317,zelenets,61.8849,50.7489,258.38,92,95,2.41,RU
318,hirara,24.8,125.2833,295.26,76,100,12.07,JP
319,sabha,27.0377,14.4283,290.94,22,0,5.03,LY
320,pemberton,50.3164,-122.8027,273.26,97,47,1.19,CA
321,mulchen,-37.7167,-72.2333,286.68,81,0,1.65,CL
322,san quintin,30.4833,-115.95,288.26,70,0,6.91,MX
323,kodiak,57.79,-152.4072,272.88,93,0,1.54,US
324,placido de castro,-10.3353,-67.1856,294.52,95,100,1.34,BR
325,lixourion,38.2019,20.4314,287.94,87,100,3.88,GR
326,asau,46.4333,26.4,271.66,98,100,1.37,RO
327,lufilufi,-13.8745,-171.5986,303.03,72,96,3.15,WS
328,ryazanovskiy,55.55,39.4333,264.4,78,100,3.04,RU
329,nagato,34.3833,131.2,282.51,49,11,7.69,JP
330,alenquer,-1.9417,-54.7383,296.24,87,86,1.69,BR
331,porangatu,-13.4408,-49.1486,294.37,93,100,1.36,BR
332,gold coast,-28.0,153.4333,311.18,52,0,8.23,AU
333,zima,53.9202,102.0442,264.42,58,100,6.24,RU
334,vila franca do campo,37.7167,-25.4333,290.38,77,71,3.75,PT
335,plast,54.3691,60.8136,247.31,100,96,1.02,RU
336,boden,65.8252,21.6886,269.15,96,53,1.0,SE
337,evensk,61.95,159.2333,252.46,85,37,3.01,RU
338,moose factory,51.2585,-80.6094,253.14,77,100,4.63,CA
339,suba,10.8438,121.0102,301.2,71,52,5.85,PH
340,flin flon,54.7682,-101.865,248.95,93,100,2.44,CA
341,tazovskiy,67.4667,78.7,261.05,93,100,5.96,RU
342,cape canaveral,28.4058,-80.6048,295.93,85,0,1.54,US
343,pryozerne,45.2698,36.3303,273.1,82,66,9.14,UA
344,lingyuan,41.24,119.4011,271.51,18,0,6.88,CN
345,chatrapur,19.35,84.9833,297.47,53,11,2.95,IN
346,baykit,61.67,96.37,258.22,95,92,2.79,RU
347,tabuny,52.7773,78.7896,252.67,99,94,1.85,RU
348,raudeberg,61.9875,5.1352,275.52,79,99,13.35,NO
349,boulder city,35.9786,-114.8325,284.51,50,0,0.0,US
350,bonthe,7.5264,-12.505,298.15,88,53,0.53,SL
351,seymchan,62.8833,152.4333,226.78,98,51,0.23,RU
352,gimli,50.6336,-96.9907,245.67,96,34,2.05,CA
353,batagay-alyta,67.8006,130.4114,242.79,98,100,1.38,RU
354,slave lake,55.2834,-114.769,249.72,74,94,2.94,CA
355,bardiyah,31.7561,25.0865,289.06,76,4,2.87,LY
356,asandh,29.5167,76.6,290.54,32,0,3.12,IN
357,labuhan,-6.8844,112.2051,303.27,64,98,1.31,ID
358,ixtapa,20.7,-105.2,297.72,88,75,0.0,MX
359,chiusi,43.016,11.9475,284.77,92,100,2.08,IT
360,bambanglipuro,-7.95,110.2833,302.73,69,98,2.8,ID
361,muros,42.7762,-9.0603,283.2,94,85,1.61,ES
362,killybegs,54.6333,-8.45,276.81,81,7,3.61,IE
363,svetlogorsk,52.6333,29.7333,264.14,90,93,4.58,BY
364,pryazha,61.6926,33.6216,266.72,90,100,4.23,RU
365,coahuayana,18.7333,-103.6833,296.61,91,6,0.98,MX
366,kargopol,61.5071,38.9456,264.11,94,100,3.7,RU
367,kinablangan,7.6947,126.5503,301.73,72,60,2.98,PH
368,oussouye,12.485,-16.5469,295.45,71,5,2.37,SN
369,vukovar,45.3433,18.9997,275.02,100,53,1.03,HR
370,tura,25.5198,90.2201,296.21,55,0,0.17,IN
371,turukhansk,65.8167,87.9833,267.13,95,100,5.66,RU
372,vao,-22.6667,167.4833,298.24,86,91,4.99,NC
373,yerbogachen,61.2767,108.0108,259.26,94,100,3.79,RU
374,thinadhoo,0.5333,72.9333,300.64,75,76,4.57,MV
375,puerto ayacucho,5.6639,-67.6236,296.61,86,68,2.0,VE
376,tukrah,32.5341,20.5791,290.08,50,32,1.56,LY
377,khani,41.9563,42.9566,274.91,82,99,1.69,GE
378,luanda,-8.8368,13.2343,297.04,85,100,3.19,AO
379,kieta,-6.2167,155.6333,298.88,85,100,1.76,PG
380,venice,27.0998,-82.4543,293.71,94,0,0.0,US
381,mao,39.8885,4.2658,286.46,100,0,3.6,ES
382,tumbi,-5.0667,32.7333,291.95,89,100,1.25,TZ
383,hualmay,-11.0964,-77.6139,291.93,86,93,3.22,PE
384,weihe,32.9952,105.3247,278.75,58,73,1.29,CN
385,nayoro,44.3506,142.4578,271.48,79,56,5.99,JP
386,vestmanna,62.1564,-7.1664,275.66,60,100,7.2,FO
387,oktyabrskoye,43.0645,44.7417,269.23,93,92,4.0,RU
388,port-gentil,-0.7193,8.7815,300.2,78,100,3.54,GA
389,eyl,7.9803,49.8164,297.98,67,83,7.91,SO
390,kropotkin,45.4375,40.5756,268.97,76,10,8.55,RU
391,chesterfield,37.3835,-77.5997,278.61,93,0,1.54,US
392,arti,56.4234,58.5328,252.4,100,13,1.04,RU
393,yeppoon,-23.1333,150.7333,307.03,56,0,6.09,AU
394,ubinskoye,55.3068,79.6802,251.32,98,60,1.92,RU
395,carahue,-38.7,-73.1667,286.46,91,59,1.04,CL
396,barhi,23.9,80.8,292.43,42,0,1.32,IN
397,dzhebariki-khaya,62.2167,135.8,244.82,96,100,1.32,RU
398,mezen,65.8522,44.24,265.69,92,100,5.9,RU
399,naushki,50.3828,106.1056,257.59,68,100,2.57,RU
400,eureka,40.8021,-124.1637,279.68,94,14,2.1,US
401,tottori,35.5,134.2333,282.49,70,96,6.39,JP
402,saint-pierre,-21.3393,55.4781,298.97,73,75,6.17,RE
403,souillac,-20.5167,57.5167,299.36,73,40,6.69,MU
404,bud,39.447,-86.1758,279.21,94,100,2.29,US
405,san rafael,-34.6177,-68.3301,296.48,60,40,0.0,AR
406,dongsheng,39.8161,109.9776,268.45,28,5,2.3,CN
407,deloraine,-41.5333,146.6667,290.45,30,8,2.68,AU
408,plover,44.4564,-89.544,272.62,55,100,3.58,US
409,farmington,36.7281,-108.2187,279.53,68,75,3.6,US
410,isangel,-19.55,169.2667,302.19,71,72,2.71,VU
411,belaya gora,68.5333,146.4167,231.94,97,35,0.56,RU
412,mehamn,71.0357,27.8492,275.12,93,75,4.12,NO
413,vostok,46.4856,135.8833,260.66,77,85,4.42,RU
414,kulhudhuffushi,6.6221,73.07,299.89,80,87,4.85,MV
415,hrodna,53.6884,23.8258,270.07,100,100,3.0,BY
416,conakry,9.538,-13.6773,299.73,78,18,3.64,GN
417,yulara,-25.2406,130.9889,314.07,8,27,7.88,AU
418,dingle,10.9995,122.6711,302.1,70,30,5.77,PH
419,kirgiz-miyaki,53.6324,54.7979,249.35,100,78,0.48,RU
420,caluquembe,-13.7833,14.6833,289.42,84,100,0.17,AO
421,ulladulla,-35.35,150.4667,291.82,61,73,4.47,AU
422,roald,62.5833,6.1333,278.01,87,40,7.72,NO
423,villa maria,-32.4075,-63.2402,297.49,43,0,4.17,AR
424,itapeva,-23.9822,-48.8756,292.48,98,100,0.2,BR
425,sao mateus do maranhao,-4.0417,-44.475,296.21,94,15,1.13,BR
426,liverpool,53.4106,-2.9779,276.64,88,75,3.09,GB
427,kotelnich,58.3089,48.348,258.08,94,98,2.41,RU
428,kapoeta,4.7717,33.5903,298.98,49,46,4.84,SS
429,villa del rosario,7.8339,-72.4742,295.36,88,40,0.0,CO
430,nacala,-14.5428,40.6728,300.2,78,26,4.07,MZ
431,visconde do rio branco,-21.0103,-42.8406,295.83,29,100,2.67,BR
432,severo-yeniseyskiy,60.3725,93.0408,254.25,97,100,2.83,RU
433,aras,42.5617,-2.356,278.39,93,100,1.54,ES
434,santa cruz cabralia,-16.2781,-39.0247,295.28,94,75,2.06,BR
435,key west,24.5557,-81.7826,300.15,79,0,3.09,US
436,avera,33.194,-82.5271,285.58,98,100,3.97,US
437,tsabong,-26.0217,22.401,290.21,15,0,3.3,BW
438,hofn,64.2539,-15.2082,274.46,68,82,3.21,IS
439,halifax,44.6453,-63.5724,272.87,85,39,2.53,CA
440,jacqueville,5.2052,-4.4146,299.6,84,82,2.41,CI
441,sivakasi,9.45,77.8167,299.52,69,59,3.05,IN
442,batemans bay,-35.7167,150.1833,292.09,55,71,4.56,AU
443,tekeli,44.83,78.8239,265.98,90,100,1.78,KZ
444,arauco,-37.2463,-73.3175,286.23,89,1,1.81,CL
445,bereznik,62.8551,42.7072,263.69,92,100,3.55,RU
446,willowmore,-33.2926,23.4895,285.66,69,100,1.57,ZA
447,rosario,-32.9468,-60.6393,299.96,56,0,3.6,AR
448,verkhnyaya toyma,62.2349,44.9985,261.59,97,99,2.56,RU
449,ceres,37.5949,-120.9577,284.71,94,0,0.0,US
450,pimentel,-6.8367,-79.9342,291.33,85,3,4.92,PE
451,zhigansk,66.7697,123.3711,237.81,100,94,2.62,RU
452,codrington,-38.2667,141.9667,289.56,62,58,4.75,AU
453,muroto,33.2833,134.15,286.02,54,0,5.23,JP
454,muhos,64.808,25.9931,272.03,90,100,5.56,FI
455,baruun-urt,46.6806,113.2792,263.27,57,77,8.7,MN
456,mosquera,4.7059,-74.2302,285.2,87,40,1.54,CO
457,laguna,38.421,-121.4238,284.31,86,0,2.57,US
458,ahipara,-35.1667,173.1667,290.29,91,100,3.13,NZ
459,aktau,43.65,51.2,260.47,44,0,2.0,KZ
460,little current,45.9793,-81.9248,274.52,90,100,3.23,CA
461,bowen,-20.0167,148.2333,301.35,58,0,5.27,AU
462,anadyr,64.75,177.4833,271.43,74,20,8.0,RU
463,esperance,-33.8667,121.9,291.22,69,83,8.0,AU
464,hamilton,39.1834,-84.5333,280.7,92,100,3.09,US
465,phangnga,8.4509,98.5298,301.17,70,90,3.11,TH
466,ukiah,39.1502,-123.2078,281.17,91,100,0.0,US
467,coihueco,-36.6167,-71.8333,285.12,65,0,1.5,CL
468,tarso,36.9188,34.8784,284.36,51,85,2.14,TR
469,lithakia,37.7167,20.8333,285.8,82,97,4.53,GR
470,porto santo,33.072,-16.3415,291.36,77,20,2.06,PT
471,aksarka,66.5606,67.7975,257.09,96,89,3.64,RU
472,san blas,21.5167,-105.2667,295.2,86,22,1.05,MX
473,marsh harbour,26.5412,-77.0636,296.59,71,37,3.55,BS
474,sumenep,-7.0167,113.8667,303.18,64,94,1.38,ID
475,okhotsk,59.3833,143.3,247.5,79,100,3.92,RU
476,hailey,43.5196,-114.3153,264.07,82,0,4.12,US
477,kirakira,-10.4544,161.9205,301.98,74,100,2.85,SB
478,trelew,-43.249,-65.3051,295.3,30,0,9.77,AR
479,del rio,29.3627,-100.8968,292.21,89,100,3.6,US
480,marabba,12.35,32.1833,295.81,30,3,5.8,SD
481,emba,48.8264,58.1442,260.22,93,82,3.22,KZ
482,kuching,1.55,110.3333,303.27,77,20,1.54,MY
483,shreveport,32.5251,-93.7502,295.27,83,0,5.66,US
484,te anau,-45.4167,167.7167,284.37,80,100,0.99,NZ
485,miyako,39.6367,141.9525,277.09,96,100,2.43,JP
486,ndele,8.4109,20.6473,295.09,34,68,1.52,CF
487,saint-georges,12.0564,-61.7485,296.97,88,20,0.0,GD
488,berlevag,70.8578,29.0864,275.15,87,100,8.23,NO
489,honningsvag,70.9821,25.9704,276.01,81,100,4.63,NO
490,thunder bay,48.4001,-89.3168,259.3,78,100,2.95,CA
491,ciudad bolivar,8.1222,-63.5497,298.03,79,100,4.57,VE
492,kudat,6.8837,116.8477,302.4,70,80,4.29,MY
493,sosnovo-ozerskoye,52.5249,111.5418,262.52,71,100,11.11,RU
494,millau,44.0833,2.9167,271.22,63,100,1.25,FR
495,ramon,16.7842,121.535,301.14,73,65,3.08,PH
496,mikhaylovka,50.06,43.2379,262.48,66,11,2.42,RU
497,moron,-34.6534,-58.6198,301.09,57,0,4.01,AR
498,musoma,-1.5,33.8,292.26,84,82,2.94,TZ
499,isla mujeres,21.2311,-86.731,298.24,66,2,6.47,MX
500,salalah,17.0151,54.0924,296.2,53,20,3.09,OM
501,narsaq,60.9167,-46.05,279.27,75,99,4.65,GL
502,naryan-mar,67.6713,53.087,259.6,94,95,6.09,RU
503,geraldton,-28.7667,114.6,299.38,50,0,10.8,AU
504,ler,8.3018,30.1418,295.72,40,3,1.94,SS
505,general pico,-35.6566,-63.7568,298.47,36,16,6.11,AR
506,saratoga springs,43.0831,-73.7846,277.39,64,100,2.23,US
507,miles city,46.4083,-105.8406,266.69,93,100,2.06,US
508,plettenberg bay,-34.0527,23.3716,288.54,73,100,1.76,ZA
509,jumla,29.2747,82.1838,286.4,12,0,1.2,NP
510,cochabamba,-17.3895,-66.1568,289.71,53,88,0.45,BO
511,gushikawa,26.3544,127.8686,294.72,64,100,9.26,JP
512,barinas,8.6226,-70.2075,297.53,70,87,1.32,VE
513,aklavik,68.2191,-135.0107,247.8,86,84,8.05,CA
514,klyuchi,52.2667,79.1667,252.86,97,85,2.24,RU
515,ciudad guayana,8.3533,-62.6528,294.9,96,51,2.09,VE
516,smithers,54.7804,-127.1743,261.82,98,91,0.26,CA
517,annonay,45.2397,4.6708,271.16,82,3,1.61,FR
518,pucallpa,-8.3791,-74.5539,297.84,70,77,1.0,PE
519,lyubech,51.7026,30.6569,265.24,85,94,5.03,UA
520,buta,2.7858,24.73,293.44,99,96,0.55,CD
521,manokwari,-0.8667,134.0833,300.92,73,100,1.26,ID
522,dakoro,14.5106,6.765,293.5,21,84,4.59,NE
523,keetmanshoop,-26.5833,18.1333,286.31,55,5,2.23,NA
524,mogadishu,2.0371,45.3438,299.65,81,63,4.81,SO
525,mercedes,-34.6515,-59.4307,298.51,60,0,4.16,AR
526,arrecife,28.963,-13.5477,290.14,94,0,3.09,ES
527,pasighat,28.0667,95.3333,296.97,32,1,1.26,IN
528,banjar,-8.19,114.9675,303.0,71,96,1.05,ID
529,merrill,45.1805,-89.6835,271.02,59,75,2.06,US
530,hervey bay,-25.2986,152.8535,299.14,71,0,6.56,AU
531,anchorage,61.2181,-149.9003,273.07,92,100,1.54,US
532,axim,4.8699,-2.2405,298.84,87,81,2.22,GH
533,bibiani,6.4635,-2.3194,295.36,100,80,0.75,GH
534,rio grande,-32.035,-52.0986,292.67,91,0,3.48,BR
535,namanyere,-7.5167,31.05,288.22,93,97,1.89,TZ
536,sola,-13.8833,167.55,301.26,69,95,3.6,VU
537,aksaray,38.3726,34.0254,275.61,77,65,1.36,TR
538,ushtobe,45.2514,77.9838,263.39,90,95,1.43,KZ
539,kamiiso,41.8167,140.65,275.99,64,97,4.03,JP
540,moindou,-21.6924,165.677,299.87,82,100,2.93,NC
541,zabol,32.25,67.25,278.19,48,15,3.56,AF
542,ratnagiri,16.9833,73.3,301.66,42,5,2.79,IN
543,taldan,53.6667,124.8,257.26,87,99,1.09,RU
544,husavik,66.0449,-17.3389,272.9,83,89,3.91,IS
545,kerema,-7.9631,145.7785,301.96,70,99,3.55,PG
546,myitkyina,25.3833,97.4,297.26,34,0,0.99,MM
547,coihaique,-45.5752,-72.0662,283.12,57,0,2.57,CL
548,grindavik,63.8424,-22.4338,275.41,87,0,1.54,IS
549,lopsmarka,67.3134,14.4493,274.15,85,75,12.35,NO
550,poum,-20.2333,164.0167,300.62,79,100,5.98,NC
551,rovaniemi,66.5,25.7167,271.82,93,100,4.12,FI
552,neuquen,-38.9516,-68.0591,294.57,40,0,2.57,AR
553,port blair,11.6667,92.75,301.17,83,75,4.63,IN
554,otane,-39.8833,176.6333,292.6,45,95,3.08,NZ
555,yarada,17.65,83.2667,297.33,78,56,1.54,IN
556,vaitape,-16.5167,-151.75,299.99,72,21,7.37,PF
557,daru,-9.0763,143.2092,303.22,61,78,5.04,PG
